name,city,state_code,country_code,latitude,longitude
Babelgum,London,,GBR,53.344104,-6.267494
Playfish,London,,GBR,51.4991094,-0.1984802
Pikum,London,,GBR,51.539778,-0.152998
Wazoo Sports,London,KY,USA,37.1286,-84.0834
Rapid Action Packaging,London,,GBR,51.4698433,-0.2611303
