name,city,state_code,country_code,latitude,longitude
iZumi Bio,South San Francisco,CA,USA,37.661523,-122.398667
Alios BioPharma,South San Francisco,CA,USA,37.6664003,-122.451448
VistaGen Therapeutics,South San Francisco,CA,USA,37.6656476,-122.3843489
KaloBios Pharmaceuticals,South San Francisco,CA,USA,37.6534817,-122.3956474
NGM Biopharmaceuticals,South San Francisco,CA,USA,37.656246,-122.399735
Sutro Biopharma,South San Francisco,CA,USA,37.647198,-122.394584
diaDexus,South San Francisco,CA,USA,37.6625446,-122.3888507
Linkage Biosciences,South San Francisco,CA,USA,37.7863728,-122.438545
CoMentis,South San Francisco,CA,USA,37.646457,-122.394008
